timestamp,message_type,field,value
1749826239.4427795,ALTITUDE,mavpackettype,ALTITUDE
1749826239.4427795,ALTITUDE,time_usec,812108000
1749826239.4427795,ALTITUDE,altitude_monotonic,49.99248504638672
1749826239.4427795,ALTITUDE,altitude_amsl,50.271305084228516
1749826239.4427795,ALTITUDE,altitude_local,50.034942626953125
1749826239.4427795,ALTITUDE,altitude_relative,50.01599884033203
1749826239.4427795,ALTITUDE,altitude_terrain,nan
1749826239.4427795,ALTITUDE,bottom_clearance,nan
1749826239.443094,ATTITUDE,mavpackettype,ATTITUDE
1749826239.443094,ATTITUDE,time_boot_ms,812104
1749826239.443094,ATTITUDE,roll,0.008677398785948753
1749826239.443094,ATTITUDE,pitch,-0.060671616345644
1749826239.443094,ATTITUDE,yaw,1.473564863204956
1749826239.443094,ATTITUDE,rollspeed,0.0025026293005794287
1749826239.443094,ATTITUDE,pitchspeed,-0.003981106914579868
1749826239.443094,ATTITUDE,yawspeed,-0.0004617004015017301
1749826239.4431736,ATTITUDE_QUATERNION,mavpackettype,ATTITUDE_QUATERNION
1749826239.4431736,ATTITUDE_QUATERNION,time_boot_ms,812104
1749826239.4431736,ATTITUDE_QUATERNION,q1,-0.7401981949806213
1749826239.4431736,ATTITUDE_QUATERNION,q2,-0.02359146438539028
1749826239.4431736,ATTITUDE_QUATERNION,q3,0.019550224766135216
1749826239.4431736,ATTITUDE_QUATERNION,q4,-0.6716903448104858
1749826239.4431736,ATTITUDE_QUATERNION,rollspeed,0.0025026293005794287
1749826239.4431736,ATTITUDE_QUATERNION,pitchspeed,-0.003981106914579868
1749826239.4431736,ATTITUDE_QUATERNION,yawspeed,-0.0004617004015017301
1749826239.4431736,ATTITUDE_QUATERNION,repr_offset_q,"[0.0, 0.0, 0.0, 0.0]"
1749826239.443253,ATTITUDE_TARGET,mavpackettype,ATTITUDE_TARGET
1749826239.443253,ATTITUDE_TARGET,time_boot_ms,812100
1749826239.443253,ATTITUDE_TARGET,type_mask,0
1749826239.443253,ATTITUDE_TARGET,q,"[0.7402680516242981, 0.024640746414661407, -0.02045023813843727, 0.6715488433837891]"
1749826239.443253,ATTITUDE_TARGET,body_roll_rate,0.0013408362865447998
1749826239.443253,ATTITUDE_TARGET,body_pitch_rate,-0.010983780026435852
1749826239.443253,ATTITUDE_TARGET,body_yaw_rate,-0.0008453130722045898
1749826239.443253,ATTITUDE_TARGET,thrust,0.7274573445320129
1749826239.4439514,UNKNOWN_290,mavpackettype,UNKNOWN_290
1749826239.4439514,UNKNOWN_290,data,"bytearray(b'\xfd.\x00\x00\x0c\x01\x01""\x01\x00@\xb9g0\x00\x00\x00\x00\x00\x00\x00\x00\x00\x00\x00\x00\x00\x00\x00\x00\x00\x00\x00\x00\x00\x00\x00\x00\x00\x00\x00\x00\x00\x00\x00\x00\x00\x00\x00\x00\x00\x00\x00\x04\x00\x0f\x03\xa0')"
1749826239.4439924,UNKNOWN_291,mavpackettype,UNKNOWN_291
1749826239.4439924,UNKNOWN_291,data,bytearray(b'\xfd\x16\x00\x00\r\x01\x01#\x01\x00@\xb9g0\x00\x00\x00\x00\xf5\x02\x00\x00\r\x03\x00\x00\xf8\x02\x00\x00\x08\x03+\xbb')
1749826239.4440427,EXTENDED_SYS_STATE,mavpackettype,EXTENDED_SYS_STATE
1749826239.4440427,EXTENDED_SYS_STATE,vtol_state,0
1749826239.4440427,EXTENDED_SYS_STATE,landed_state,2
1749826239.44409,GLOBAL_POSITION_INT,mavpackettype,GLOBAL_POSITION_INT
1749826239.44409,GLOBAL_POSITION_INT,time_boot_ms,812100
1749826239.44409,GLOBAL_POSITION_INT,lat,474001295
1749826239.44409,GLOBAL_POSITION_INT,lon,85452469
1749826239.44409,GLOBAL_POSITION_INT,alt,50271
1749826239.44409,GLOBAL_POSITION_INT,relative_alt,50016
1749826239.44409,GLOBAL_POSITION_INT,vx,46
1749826239.44409,GLOBAL_POSITION_INT,vy,499
1749826239.44409,GLOBAL_POSITION_INT,vz,1
1749826239.44409,GLOBAL_POSITION_INT,hdg,8442
1749826239.444162,GPS_RAW_INT,mavpackettype,GPS_RAW_INT
1749826239.444162,GPS_RAW_INT,time_usec,812100000
1749826239.444162,GPS_RAW_INT,fix_type,3
1749826239.444162,GPS_RAW_INT,lat,474001291
1749826239.444162,GPS_RAW_INT,lon,85452406
1749826239.444162,GPS_RAW_INT,alt,50336
1749826239.444162,GPS_RAW_INT,eph,70
1749826239.444162,GPS_RAW_INT,epv,110
1749826239.444162,GPS_RAW_INT,vel,503
1749826239.444162,GPS_RAW_INT,cog,8422
1749826239.444162,GPS_RAW_INT,satellites_visible,10
1749826239.444162,GPS_RAW_INT,alt_ellipsoid,50336
1749826239.444162,GPS_RAW_INT,h_acc,900
1749826239.444162,GPS_RAW_INT,v_acc,1780
1749826239.444162,GPS_RAW_INT,vel_acc,400
1749826239.444162,GPS_RAW_INT,hdg_acc,0
1749826239.444162,GPS_RAW_INT,yaw,0
1749826239.4454794,LOCAL_POSITION_NED,mavpackettype,LOCAL_POSITION_NED
1749826239.4454794,LOCAL_POSITION_NED,time_boot_ms,812100
1749826239.4454794,LOCAL_POSITION_NED,x,240.00315856933594
1749826239.4454794,LOCAL_POSITION_NED,y,-69.02082824707031
1749826239.4454794,LOCAL_POSITION_NED,z,-50.034942626953125
1749826239.4454794,LOCAL_POSITION_NED,vx,0.4653030335903168
1749826239.4454794,LOCAL_POSITION_NED,vy,4.9982709884643555
1749826239.4454794,LOCAL_POSITION_NED,vz,0.01850980706512928
1749826239.4455695,OPEN_DRONE_ID_LOCATION,mavpackettype,OPEN_DRONE_ID_LOCATION
1749826239.4455695,OPEN_DRONE_ID_LOCATION,target_system,0
1749826239.4455695,OPEN_DRONE_ID_LOCATION,target_component,0
1749826239.4455695,OPEN_DRONE_ID_LOCATION,id_or_mac,"[0, 0, 0, 0, 0, 0, 0, 0, 0, 0, 0, 0, 0, 0, 0, 0, 0, 0, 0, 0]"
1749826239.4455695,OPEN_DRONE_ID_LOCATION,status,2
1749826239.4455695,OPEN_DRONE_ID_LOCATION,direction,8400
1749826239.4455695,OPEN_DRONE_ID_LOCATION,speed_horizontal,503
1749826239.4455695,OPEN_DRONE_ID_LOCATION,speed_vertical,-1
1749826239.4455695,OPEN_DRONE_ID_LOCATION,latitude,474001291
1749826239.4455695,OPEN_DRONE_ID_LOCATION,longitude,85452406
1749826239.4455695,OPEN_DRONE_ID_LOCATION,altitude_barometric,49.99248504638672
1749826239.4455695,OPEN_DRONE_ID_LOCATION,altitude_geodetic,50.0
1749826239.4455695,OPEN_DRONE_ID_LOCATION,height_reference,0
1749826239.4455695,OPEN_DRONE_ID_LOCATION,height,50.01599884033203
1749826239.4455695,OPEN_DRONE_ID_LOCATION,horizontal_accuracy,12
1749826239.4455695,OPEN_DRONE_ID_LOCATION,vertical_accuracy,5
1749826239.4455695,OPEN_DRONE_ID_LOCATION,barometer_accuracy,0
1749826239.4455695,OPEN_DRONE_ID_LOCATION,speed_accuracy,3
1749826239.4455695,OPEN_DRONE_ID_LOCATION,timestamp,65535.0
1749826239.4455695,OPEN_DRONE_ID_LOCATION,timestamp_accuracy,0
1749826239.4513996,OPEN_DRONE_ID_SYSTEM,mavpackettype,OPEN_DRONE_ID_SYSTEM
1749826239.4513996,OPEN_DRONE_ID_SYSTEM,target_system,0
1749826239.4513996,OPEN_DRONE_ID_SYSTEM,target_component,0
1749826239.4513996,OPEN_DRONE_ID_SYSTEM,id_or_mac,"[0, 0, 0, 0, 0, 0, 0, 0, 0, 0, 0, 0, 0, 0, 0, 0, 0, 0, 0, 0]"
1749826239.4513996,OPEN_DRONE_ID_SYSTEM,operator_location_type,0
1749826239.4513996,OPEN_DRONE_ID_SYSTEM,classification_type,0
1749826239.4513996,OPEN_DRONE_ID_SYSTEM,operator_latitude,473979710
1749826239.4513996,OPEN_DRONE_ID_SYSTEM,operator_longitude,85461641
1749826239.4513996,OPEN_DRONE_ID_SYSTEM,area_count,1
1749826239.4513996,OPEN_DRONE_ID_SYSTEM,area_radius,0
1749826239.4513996,OPEN_DRONE_ID_SYSTEM,area_ceiling,-1000.0
1749826239.4513996,OPEN_DRONE_ID_SYSTEM,area_floor,-1000.0
1749826239.4513996,OPEN_DRONE_ID_SYSTEM,category_eu,0
1749826239.4513996,OPEN_DRONE_ID_SYSTEM,class_eu,0
1749826239.4513996,OPEN_DRONE_ID_SYSTEM,operator_altitude_geo,0.25530532002449036
1749826239.4513996,OPEN_DRONE_ID_SYSTEM,timestamp,2748666496
1749826239.4515946,POSITION_TARGET_LOCAL_NED,mavpackettype,POSITION_TARGET_LOCAL_NED
1749826239.4515946,POSITION_TARGET_LOCAL_NED,time_boot_ms,812100
1749826239.4515946,POSITION_TARGET_LOCAL_NED,coordinate_frame,1
1749826239.4515946,POSITION_TARGET_LOCAL_NED,type_mask,0
1749826239.4515946,POSITION_TARGET_LOCAL_NED,x,239.95713806152344
1749826239.4515946,POSITION_TARGET_LOCAL_NED,y,-68.98965454101562
1749826239.4515946,POSITION_TARGET_LOCAL_NED,z,-50.0188102722168
1749826239.4515946,POSITION_TARGET_LOCAL_NED,vx,0.4451555907726288
1749826239.4515946,POSITION_TARGET_LOCAL_NED,vy,5.00565767288208
1749826239.4515946,POSITION_TARGET_LOCAL_NED,vz,0.01612725667655468
1749826239.4515946,POSITION_TARGET_LOCAL_NED,afx,-0.027688102796673775
1749826239.4515946,POSITION_TARGET_LOCAL_NED,afy,0.6284051537513733
1749826239.4515946,POSITION_TARGET_LOCAL_NED,afz,-0.005014055408537388
1749826239.4515946,POSITION_TARGET_LOCAL_NED,yaw,1.4732379913330078
1749826239.4515946,POSITION_TARGET_LOCAL_NED,yaw_rate,0.0
1749826239.4517562,SCALED_PRESSURE,mavpackettype,SCALED_PRESSURE
1749826239.4517562,SCALED_PRESSURE,time_boot_ms,812040
1749826239.4517562,SCALED_PRESSURE,press_abs,1007.2503662109375
1749826239.4517562,SCALED_PRESSURE,press_diff,0.0
1749826239.4517562,SCALED_PRESSURE,temperature,28815
1749826239.4517562,SCALED_PRESSURE,temperature_press_diff,0
1749826239.4519377,SERVO_OUTPUT_RAW,mavpackettype,SERVO_OUTPUT_RAW
1749826239.4519377,SERVO_OUTPUT_RAW,time_usec,812104000
1749826239.4519377,SERVO_OUTPUT_RAW,port,0
1749826239.4519377,SERVO_OUTPUT_RAW,servo1_raw,757
1749826239.4519377,SERVO_OUTPUT_RAW,servo2_raw,781
1749826239.4519377,SERVO_OUTPUT_RAW,servo3_raw,760
1749826239.4519377,SERVO_OUTPUT_RAW,servo4_raw,776
1749826239.4519377,SERVO_OUTPUT_RAW,servo5_raw,0
1749826239.4519377,SERVO_OUTPUT_RAW,servo6_raw,0
1749826239.4519377,SERVO_OUTPUT_RAW,servo7_raw,0
1749826239.4519377,SERVO_OUTPUT_RAW,servo8_raw,0
1749826239.4519377,SERVO_OUTPUT_RAW,servo9_raw,0
1749826239.4519377,SERVO_OUTPUT_RAW,servo10_raw,0
1749826239.4519377,SERVO_OUTPUT_RAW,servo11_raw,0
1749826239.4519377,SERVO_OUTPUT_RAW,servo12_raw,0
1749826239.4519377,SERVO_OUTPUT_RAW,servo13_raw,0
1749826239.4519377,SERVO_OUTPUT_RAW,servo14_raw,0
1749826239.4519377,SERVO_OUTPUT_RAW,servo15_raw,0
1749826239.4519377,SERVO_OUTPUT_RAW,servo16_raw,0
1749826239.4520926,SYS_STATUS,mavpackettype,SYS_STATUS
1749826239.4520926,SYS_STATUS,onboard_control_sensors_present,50380847
1749826239.4520926,SYS_STATUS,onboard_control_sensors_enabled,50446383
1749826239.4520926,SYS_STATUS,onboard_control_sensors_health,320915519
1749826239.4520926,SYS_STATUS,load,196
1749826239.4520926,SYS_STATUS,voltage_battery,15300
1749826239.4520926,SYS_STATUS,current_battery,-100
1749826239.4520926,SYS_STATUS,battery_remaining,51
1749826239.4520926,SYS_STATUS,drop_rate_comm,0
1749826239.4520926,SYS_STATUS,errors_comm,0
1749826239.4520926,SYS_STATUS,errors_count1,0
1749826239.4520926,SYS_STATUS,errors_count2,0
1749826239.4520926,SYS_STATUS,errors_count3,0
1749826239.4520926,SYS_STATUS,errors_count4,0
1749826239.4522147,VFR_HUD,mavpackettype,VFR_HUD
1749826239.4522147,VFR_HUD,airspeed,nan
1749826239.4522147,VFR_HUD,groundspeed,5.019882678985596
1749826239.4522147,VFR_HUD,heading,84
1749826239.4522147,VFR_HUD,throttle,72
1749826239.4522147,VFR_HUD,alt,50.271305084228516
1749826239.4522147,VFR_HUD,climb,-0.01850980706512928
1749826239.452314,UNKNOWN_8,mavpackettype,UNKNOWN_8
1749826239.452314,UNKNOWN_8,data,bytearray(b'\xfd\x1b\x00\x00\x19\x01\x01\x08\x00\x00\xe0\xc8g0\x00\x00\x00\x00^>\x00\x00^=\x00\x00\x19\x9a\x04\x00\xd3\xf0\x03\x00\x7f\xaf\x02d\xd4')
1749826239.4523869,ATTITUDE,mavpackettype,ATTITUDE
1749826239.4523869,ATTITUDE,time_boot_ms,812124
1749826239.4523869,ATTITUDE,roll,0.008711321279406548
1749826239.4523869,ATTITUDE,pitch,-0.060851652175188065
1749826239.4523869,ATTITUDE,yaw,1.4735679626464844
1749826239.4523869,ATTITUDE,rollspeed,0.002650474663823843
1749826239.4523869,ATTITUDE,pitchspeed,-0.016234595328569412
1749826239.4523869,ATTITUDE,yawspeed,-0.000302576256217435
1749826239.4525006,ATTITUDE_QUATERNION,mavpackettype,ATTITUDE_QUATERNION
1749826239.4525006,ATTITUDE_QUATERNION,time_boot_ms,812124
1749826239.4525006,ATTITUDE_QUATERNION,q1,-0.7401943802833557
1749826239.4525006,ATTITUDE_QUATERNION,q2,-0.023664498701691628
1749826239.4525006,ATTITUDE_QUATERNION,q3,0.019605441018939018
1749826239.4525006,ATTITUDE_QUATERNION,q4,-0.6716902852058411
1749826239.4525006,ATTITUDE_QUATERNION,rollspeed,0.002650474663823843
1749826239.4525006,ATTITUDE_QUATERNION,pitchspeed,-0.016234595328569412
1749826239.4525006,ATTITUDE_QUATERNION,yawspeed,-0.000302576256217435
1749826239.4525006,ATTITUDE_QUATERNION,repr_offset_q,"[0.0, 0.0, 0.0, 0.0]"
1749826239.4526172,ATTITUDE_TARGET,mavpackettype,ATTITUDE_TARGET
1749826239.4526172,ATTITUDE_TARGET,time_boot_ms,812124
1749826239.4526172,ATTITUDE_TARGET,type_mask,0
1749826239.4526172,ATTITUDE_TARGET,q,"[0.7402680516242981, 0.02462201565504074, -0.020493891090154648, 0.6715482473373413]"
1749826239.4526172,ATTITUDE_TARGET,body_roll_rate,0.0009356588125228882
1749826239.4526172,ATTITUDE_TARGET,body_pitch_rate,-0.03825083374977112
1749826239.4526172,ATTITUDE_TARGET,body_yaw_rate,-0.0006813406944274902
1749826239.4526172,ATTITUDE_TARGET,thrust,0.7274379730224609
1749826239.452689,GLOBAL_POSITION_INT,mavpackettype,GLOBAL_POSITION_INT
1749826239.452689,GLOBAL_POSITION_INT,time_boot_ms,812124
1749826239.452689,GLOBAL_POSITION_INT,lat,474001296
1749826239.452689,GLOBAL_POSITION_INT,lon,85452485
1749826239.452689,GLOBAL_POSITION_INT,alt,50271
1749826239.452689,GLOBAL_POSITION_INT,relative_alt,50015
1749826239.452689,GLOBAL_POSITION_INT,vx,46
1749826239.452689,GLOBAL_POSITION_INT,vy,499
1749826239.452689,GLOBAL_POSITION_INT,vz,1
1749826239.452689,GLOBAL_POSITION_INT,hdg,8442
1749826239.452745,LOCAL_POSITION_NED,mavpackettype,LOCAL_POSITION_NED
1749826239.452745,LOCAL_POSITION_NED,time_boot_ms,812124
1749826239.452745,LOCAL_POSITION_NED,x,240.0150604248047
1749826239.452745,LOCAL_POSITION_NED,y,-68.90122985839844
1749826239.452745,LOCAL_POSITION_NED,z,-50.03474426269531
1749826239.452745,LOCAL_POSITION_NED,vx,0.46478796005249023
1749826239.452745,LOCAL_POSITION_NED,vy,4.997856140136719
1749826239.452745,LOCAL_POSITION_NED,vz,0.0182139053940773
1749826239.4528272,POSITION_TARGET_LOCAL_NED,mavpackettype,POSITION_TARGET_LOCAL_NED
1749826239.4528272,POSITION_TARGET_LOCAL_NED,time_boot_ms,812124
1749826239.4528272,POSITION_TARGET_LOCAL_NED,coordinate_frame,1
1749826239.4528272,POSITION_TARGET_LOCAL_NED,type_mask,0
1749826239.4528272,POSITION_TARGET_LOCAL_NED,x,239.9688720703125
1749826239.4528272,POSITION_TARGET_LOCAL_NED,y,-68.87023162841797
1749826239.4528272,POSITION_TARGET_LOCAL_NED,z,-50.0188102722168
1749826239.4528272,POSITION_TARGET_LOCAL_NED,vx,0.44499534368515015
1749826239.4528272,POSITION_TARGET_LOCAL_NED,vy,5.005490779876709
1749826239.4528272,POSITION_TARGET_LOCAL_NED,vz,0.01592888869345188
1749826239.4528272,POSITION_TARGET_LOCAL_NED,afx,-0.026805439963936806
1749826239.4528272,POSITION_TARGET_LOCAL_NED,afy,0.6287086606025696
1749826239.4528272,POSITION_TARGET_LOCAL_NED,afz,-0.004740506876260042
1749826239.4528272,POSITION_TARGET_LOCAL_NED,yaw,1.473239541053772
1749826239.4528272,POSITION_TARGET_LOCAL_NED,yaw_rate,0.0
1749826239.4529848,SERVO_OUTPUT_RAW,mavpackettype,SERVO_OUTPUT_RAW
1749826239.4529848,SERVO_OUTPUT_RAW,time_usec,812124000
1749826239.4529848,SERVO_OUTPUT_RAW,port,0
1749826239.4529848,SERVO_OUTPUT_RAW,servo1_raw,758
1749826239.4529848,SERVO_OUTPUT_RAW,servo2_raw,780
1749826239.4529848,SERVO_OUTPUT_RAW,servo3_raw,761
1749826239.4529848,SERVO_OUTPUT_RAW,servo4_raw,775
1749826239.4529848,SERVO_OUTPUT_RAW,servo5_raw,0
1749826239.4529848,SERVO_OUTPUT_RAW,servo6_raw,0
1749826239.4529848,SERVO_OUTPUT_RAW,servo7_raw,0
1749826239.4529848,SERVO_OUTPUT_RAW,servo8_raw,0
1749826239.4529848,SERVO_OUTPUT_RAW,servo9_raw,0
1749826239.4529848,SERVO_OUTPUT_RAW,servo10_raw,0
1749826239.4529848,SERVO_OUTPUT_RAW,servo11_raw,0
1749826239.4529848,SERVO_OUTPUT_RAW,servo12_raw,0
1749826239.4529848,SERVO_OUTPUT_RAW,servo13_raw,0
1749826239.4529848,SERVO_OUTPUT_RAW,servo14_raw,0
1749826239.4529848,SERVO_OUTPUT_RAW,servo15_raw,0
1749826239.4529848,SERVO_OUTPUT_RAW,servo16_raw,0
1749826239.4530978,ATTITUDE,mavpackettype,ATTITUDE
1749826239.4530978,ATTITUDE,time_boot_ms,812144
1749826239.4530978,ATTITUDE,roll,0.00875590369105339
1749826239.4530978,ATTITUDE,pitch,-0.061151664704084396
1749826239.4530978,ATTITUDE,yaw,1.473570704460144
1749826239.4530978,ATTITUDE,rollspeed,0.0025395432021468878
1749826239.4530978,ATTITUDE,pitchspeed,-0.015040747821331024
1749826239.4530978,ATTITUDE,yawspeed,-0.0007917359471321106
1749826239.4532022,ATTITUDE_QUATERNION,mavpackettype,ATTITUDE_QUATERNION
1749826239.4532022,ATTITUDE_QUATERNION,time_boot_ms,812144
1749826239.4532022,ATTITUDE_QUATERNION,q1,-0.7401891350746155
1749826239.4532022,ATTITUDE_QUATERNION,q2,-0.023781752213835716
1749826239.4532022,ATTITUDE_QUATERNION,q3,0.01970149762928486
1749826239.4532022,ATTITUDE_QUATERNION,q4,-0.6716891527175903
1749826239.4532022,ATTITUDE_QUATERNION,rollspeed,0.0025395432021468878
1749826239.4532022,ATTITUDE_QUATERNION,pitchspeed,-0.015040747821331024
1749826239.4532022,ATTITUDE_QUATERNION,yawspeed,-0.0007917359471321106
1749826239.4532022,ATTITUDE_QUATERNION,repr_offset_q,"[0.0, 0.0, 0.0, 0.0]"
1749826239.467398,ATTITUDE_TARGET,mavpackettype,ATTITUDE_TARGET
1749826239.467398,ATTITUDE_TARGET,time_boot_ms,812140
1749826239.467398,ATTITUDE_TARGET,type_mask,0
1749826239.467398,ATTITUDE_TARGET,q,"[0.7402682900428772, 0.02460513450205326, -0.02050325646996498, 0.6715482473373413]"
1749826239.467398,ATTITUDE_TARGET,body_roll_rate,0.0005292743444442749
1749826239.467398,ATTITUDE_TARGET,body_pitch_rate,-0.009186461567878723
1749826239.467398,ATTITUDE_TARGET,body_yaw_rate,-0.0008661746978759766
1749826239.467398,ATTITUDE_TARGET,thrust,0.727401852607727
1749826239.4675548,GLOBAL_POSITION_INT,mavpackettype,GLOBAL_POSITION_INT
1749826239.4675548,GLOBAL_POSITION_INT,time_boot_ms,812140
1749826239.4675548,GLOBAL_POSITION_INT,lat,474001297
1749826239.4675548,GLOBAL_POSITION_INT,lon,85452495
1749826239.4675548,GLOBAL_POSITION_INT,alt,50270
1749826239.4675548,GLOBAL_POSITION_INT,relative_alt,50015
1749826239.4675548,GLOBAL_POSITION_INT,vx,46
1749826239.4675548,GLOBAL_POSITION_INT,vy,499
1749826239.4675548,GLOBAL_POSITION_INT,vz,1
1749826239.4675548,GLOBAL_POSITION_INT,hdg,8442
1749826239.4676504,LOCAL_POSITION_NED,mavpackettype,LOCAL_POSITION_NED
1749826239.4676504,LOCAL_POSITION_NED,time_boot_ms,812140
1749826239.4676504,LOCAL_POSITION_NED,x,240.02296447753906
1749826239.4676504,LOCAL_POSITION_NED,y,-68.82148742675781
1749826239.4676504,LOCAL_POSITION_NED,z,-50.034603118896484
1749826239.4676504,LOCAL_POSITION_NED,vx,0.46446749567985535
1749826239.4676504,LOCAL_POSITION_NED,vy,4.997662544250488
1749826239.4676504,LOCAL_POSITION_NED,vz,0.0179350133985281
1749826239.467749,POSITION_TARGET_LOCAL_NED,mavpackettype,POSITION_TARGET_LOCAL_NED
1749826239.467749,POSITION_TARGET_LOCAL_NED,time_boot_ms,812140
1749826239.467749,POSITION_TARGET_LOCAL_NED,coordinate_frame,1
1749826239.467749,POSITION_TARGET_LOCAL_NED,type_mask,0
1749826239.467749,POSITION_TARGET_LOCAL_NED,x,239.9766845703125
1749826239.467749,POSITION_TARGET_LOCAL_NED,y,-68.79061889648438
1749826239.467749,POSITION_TARGET_LOCAL_NED,z,-50.0188102722168
1749826239.467749,POSITION_TARGET_LOCAL_NED,vx,0.4449082314968109
1749826239.467749,POSITION_TARGET_LOCAL_NED,vy,5.005367755889893
1749826239.467749,POSITION_TARGET_LOCAL_NED,vz,0.015787741169333458
1749826239.467749,POSITION_TARGET_LOCAL_NED,afx,-0.026446640491485596
1749826239.467749,POSITION_TARGET_LOCAL_NED,afy,0.628594696521759
1749826239.467749,POSITION_TARGET_LOCAL_NED,afz,-0.004268161952495575
1749826239.467749,POSITION_TARGET_LOCAL_NED,yaw,1.4732404947280884
1749826239.467749,POSITION_TARGET_LOCAL_NED,yaw_rate,0.0
1749826239.4679167,SERVO_OUTPUT_RAW,mavpackettype,SERVO_OUTPUT_RAW
1749826239.4679167,SERVO_OUTPUT_RAW,time_usec,812144000
1749826239.4679167,SERVO_OUTPUT_RAW,port,0
1749826239.4679167,SERVO_OUTPUT_RAW,servo1_raw,760
1749826239.4679167,SERVO_OUTPUT_RAW,servo2_raw,778
1749826239.4679167,SERVO_OUTPUT_RAW,servo3_raw,763
1749826239.4679167,SERVO_OUTPUT_RAW,servo4_raw,773
1749826239.4679167,SERVO_OUTPUT_RAW,servo5_raw,0
1749826239.4679167,SERVO_OUTPUT_RAW,servo6_raw,0
1749826239.4679167,SERVO_OUTPUT_RAW,servo7_raw,0
1749826239.4679167,SERVO_OUTPUT_RAW,servo8_raw,0
1749826239.4679167,SERVO_OUTPUT_RAW,servo9_raw,0
1749826239.4679167,SERVO_OUTPUT_RAW,servo10_raw,0
1749826239.4679167,SERVO_OUTPUT_RAW,servo11_raw,0
1749826239.4679167,SERVO_OUTPUT_RAW,servo12_raw,0
1749826239.4679167,SERVO_OUTPUT_RAW,servo13_raw,0
1749826239.4679167,SERVO_OUTPUT_RAW,servo14_raw,0
1749826239.4679167,SERVO_OUTPUT_RAW,servo15_raw,0
1749826239.4679167,SERVO_OUTPUT_RAW,servo16_raw,0
1749826239.468086,ATTITUDE,mavpackettype,ATTITUDE
1749826239.468086,ATTITUDE,time_boot_ms,812164
1749826239.468086,ATTITUDE,roll,0.008781839162111282
1749826239.468086,ATTITUDE,pitch,-0.06139637157320976
1749826239.468086,ATTITUDE,yaw,1.4735780954360962
1749826239.468086,ATTITUDE,rollspeed,0.001489609363488853
1749826239.468086,ATTITUDE,pitchspeed,-0.014662275090813637
1749826239.468086,ATTITUDE,yawspeed,-0.00010440280311740935
1749826239.4710252,ATTITUDE_QUATERNION,mavpackettype,ATTITUDE_QUATERNION
1749826239.4710252,ATTITUDE_QUATERNION,time_boot_ms,812164
1749826239.4710252,ATTITUDE_QUATERNION,q1,-0.7401832342147827
1749826239.4710252,ATTITUDE_QUATERNION,q2,-0.02387358248233795
1749826239.4710252,ATTITUDE_QUATERNION,q3,0.01978328451514244
1749826239.4710252,ATTITUDE_QUATERNION,q4,-0.671690046787262
1749826239.4710252,ATTITUDE_QUATERNION,rollspeed,0.001489609363488853
1749826239.4710252,ATTITUDE_QUATERNION,pitchspeed,-0.014662275090813637
1749826239.4710252,ATTITUDE_QUATERNION,yawspeed,-0.00010440280311740935
1749826239.4710252,ATTITUDE_QUATERNION,repr_offset_q,"[0.0, 0.0, 0.0, 0.0]"
1749826239.4715128,ATTITUDE_TARGET,mavpackettype,ATTITUDE_TARGET
1749826239.4715128,ATTITUDE_TARGET,time_boot_ms,812160
1749826239.4715128,ATTITUDE_TARGET,type_mask,0
1749826239.4715128,ATTITUDE_TARGET,q,"[0.7402213215827942, 0.025760680437088013, -0.021789366379380226, 0.6715161800384521]"
1749826239.4715128,ATTITUDE_TARGET,body_roll_rate,0.00035797804594039917
1749826239.4715128,ATTITUDE_TARGET,body_pitch_rate,-0.022046521306037903
1749826239.4715128,ATTITUDE_TARGET,body_yaw_rate,-0.0008048415184020996
1749826239.4715128,ATTITUDE_TARGET,thrust,0.7275277972221375
1749826239.471607,GLOBAL_POSITION_INT,mavpackettype,GLOBAL_POSITION_INT
1749826239.471607,GLOBAL_POSITION_INT,time_boot_ms,812160
1749826239.471607,GLOBAL_POSITION_INT,lat,474001297
1749826239.471607,GLOBAL_POSITION_INT,lon,85452506
1749826239.471607,GLOBAL_POSITION_INT,alt,50270
1749826239.471607,GLOBAL_POSITION_INT,relative_alt,50015
1749826239.471607,GLOBAL_POSITION_INT,vx,46
1749826239.471607,GLOBAL_POSITION_INT,vy,499
1749826239.471607,GLOBAL_POSITION_INT,vz,1
1749826239.471607,GLOBAL_POSITION_INT,hdg,8442
1749826239.4737167,LOCAL_POSITION_NED,mavpackettype,LOCAL_POSITION_NED
1749826239.4737167,LOCAL_POSITION_NED,time_boot_ms,812160
1749826239.4737167,LOCAL_POSITION_NED,x,240.03089904785156
1749826239.4737167,LOCAL_POSITION_NED,y,-68.74169158935547
1749826239.4737167,LOCAL_POSITION_NED,z,-50.034481048583984
1749826239.4737167,LOCAL_POSITION_NED,vx,0.46416980028152466
1749826239.4737167,LOCAL_POSITION_NED,vy,4.997490882873535
1749826239.4737167,LOCAL_POSITION_NED,vz,0.017667213454842567
1749826239.4741313,POSITION_TARGET_LOCAL_NED,mavpackettype,POSITION_TARGET_LOCAL_NED
1749826239.4741313,POSITION_TARGET_LOCAL_NED,time_boot_ms,812160
1749826239.4741313,POSITION_TARGET_LOCAL_NED,coordinate_frame,1
1749826239.4741313,POSITION_TARGET_LOCAL_NED,type_mask,0
1749826239.4741313,POSITION_TARGET_LOCAL_NED,x,239.98646545410156
1749826239.4741313,POSITION_TARGET_LOCAL_NED,y,-68.69110107421875
1749826239.4741313,POSITION_TARGET_LOCAL_NED,z,-50.0188102722168
1749826239.4741313,POSITION_TARGET_LOCAL_NED,vx,0.44666215777397156
1749826239.4741313,POSITION_TARGET_LOCAL_NED,vy,5.02410364151001
1749826239.4741313,POSITION_TARGET_LOCAL_NED,vz,0.01566566713154316
1749826239.4741313,POSITION_TARGET_LOCAL_NED,afx,-0.022995557636022568
1749826239.4741313,POSITION_TARGET_LOCAL_NED,afy,0.662495493888855
1749826239.4741313,POSITION_TARGET_LOCAL_NED,afz,-0.0037573319859802723
1749826239.4741313,POSITION_TARGET_LOCAL_NED,yaw,1.4732413291931152
1749826239.4741313,POSITION_TARGET_LOCAL_NED,yaw_rate,0.0
1749826239.4841251,SERVO_OUTPUT_RAW,mavpackettype,SERVO_OUTPUT_RAW
1749826239.4841251,SERVO_OUTPUT_RAW,time_usec,812164000
1749826239.4841251,SERVO_OUTPUT_RAW,port,0
1749826239.4841251,SERVO_OUTPUT_RAW,servo1_raw,758
1749826239.4841251,SERVO_OUTPUT_RAW,servo2_raw,780
1749826239.4841251,SERVO_OUTPUT_RAW,servo3_raw,761
1749826239.4841251,SERVO_OUTPUT_RAW,servo4_raw,775
1749826239.4841251,SERVO_OUTPUT_RAW,servo5_raw,0
1749826239.4841251,SERVO_OUTPUT_RAW,servo6_raw,0
1749826239.4841251,SERVO_OUTPUT_RAW,servo7_raw,0
1749826239.4841251,SERVO_OUTPUT_RAW,servo8_raw,0
1749826239.4841251,SERVO_OUTPUT_RAW,servo9_raw,0
1749826239.4841251,SERVO_OUTPUT_RAW,servo10_raw,0
1749826239.4841251,SERVO_OUTPUT_RAW,servo11_raw,0
1749826239.4841251,SERVO_OUTPUT_RAW,servo12_raw,0
1749826239.4841251,SERVO_OUTPUT_RAW,servo13_raw,0
1749826239.4841251,SERVO_OUTPUT_RAW,servo14_raw,0
1749826239.4841251,SERVO_OUTPUT_RAW,servo15_raw,0
1749826239.4841251,SERVO_OUTPUT_RAW,servo16_raw,0
1749826239.484531,ATTITUDE,mavpackettype,ATTITUDE
1749826239.484531,ATTITUDE,time_boot_ms,812184
1749826239.484531,ATTITUDE,roll,0.008797907270491123
1749826239.484531,ATTITUDE,pitch,-0.061707332730293274
1749826239.484531,ATTITUDE,yaw,1.4735872745513916
1749826239.484531,ATTITUDE,rollspeed,-0.0001582776749273762
1749826239.484531,ATTITUDE,pitchspeed,-0.02074546553194523
1749826239.484531,ATTITUDE,yawspeed,-0.00075354496948421
1749826239.4846733,ATTITUDE_QUATERNION,mavpackettype,ATTITUDE_QUATERNION
1749826239.4846733,ATTITUDE_QUATERNION,time_boot_ms,812184
1749826239.4846733,ATTITUDE_QUATERNION,q1,-0.7401759624481201
1749826239.4846733,ATTITUDE_QUATERNION,q2,-0.023984024301171303
1749826239.4846733,ATTITUDE_QUATERNION,q3,0.019892890006303787
1749826239.4846733,ATTITUDE_QUATERNION,q4,-0.6716908812522888
1749826239.4846733,ATTITUDE_QUATERNION,rollspeed,-0.0001582776749273762
1749826239.4846733,ATTITUDE_QUATERNION,pitchspeed,-0.02074546553194523
1749826239.4846733,ATTITUDE_QUATERNION,yawspeed,-0.00075354496948421
1749826239.4846733,ATTITUDE_QUATERNION,repr_offset_q,"[0.0, 0.0, 0.0, 0.0]"
1749826239.4847898,ATTITUDE_TARGET,mavpackettype,ATTITUDE_TARGET
1749826239.4847898,ATTITUDE_TARGET,time_boot_ms,812184
1749826239.4847898,ATTITUDE_TARGET,type_mask,0
1749826239.4847898,ATTITUDE_TARGET,q,"[0.7402217388153076, 0.02574138529598713, -0.021791648119688034, 0.6715163588523865]"
1749826239.4847898,ATTITUDE_TARGET,body_roll_rate,0.00013352930545806885
1749826239.4847898,ATTITUDE_TARGET,body_pitch_rate,-0.04858952760696411
1749826239.4847898,ATTITUDE_TARGET,body_yaw_rate,-0.0006633996963500977
1749826239.4847898,ATTITUDE_TARGET,thrust,0.7274778485298157
1749826239.4849002,GLOBAL_POSITION_INT,mavpackettype,GLOBAL_POSITION_INT
1749826239.4849002,GLOBAL_POSITION_INT,time_boot_ms,812184
1749826239.4849002,GLOBAL_POSITION_INT,lat,474001298
1749826239.4849002,GLOBAL_POSITION_INT,lon,85452522
1749826239.4849002,GLOBAL_POSITION_INT,alt,50270
1749826239.4849002,GLOBAL_POSITION_INT,relative_alt,50015
1749826239.4849002,GLOBAL_POSITION_INT,vx,46
1749826239.4849002,GLOBAL_POSITION_INT,vy,499
1749826239.4849002,GLOBAL_POSITION_INT,vz,1
1749826239.4849002,GLOBAL_POSITION_INT,hdg,8443
1749826239.4849858,LOCAL_POSITION_NED,mavpackettype,LOCAL_POSITION_NED
1749826239.4849858,LOCAL_POSITION_NED,time_boot_ms,812184
1749826239.4849858,LOCAL_POSITION_NED,x,240.0427703857422
1749826239.4849858,LOCAL_POSITION_NED,y,-68.62197875976562
1749826239.4849858,LOCAL_POSITION_NED,z,-50.03431701660156
1749826239.4849858,LOCAL_POSITION_NED,vx,0.46372732520103455
1749826239.4849858,LOCAL_POSITION_NED,vy,4.997249126434326
1749826239.4849858,LOCAL_POSITION_NED,vz,0.01731543429195881
1749826239.4850874,POSITION_TARGET_LOCAL_NED,mavpackettype,POSITION_TARGET_LOCAL_NED
1749826239.4850874,POSITION_TARGET_LOCAL_NED,time_boot_ms,812184
1749826239.4850874,POSITION_TARGET_LOCAL_NED,coordinate_frame,1
1749826239.4850874,POSITION_TARGET_LOCAL_NED,type_mask,0
1749826239.4850874,POSITION_TARGET_LOCAL_NED,x,239.99819946289062
1749826239.4850874,POSITION_TARGET_LOCAL_NED,y,-68.5716781616211
1749826239.4850874,POSITION_TARGET_LOCAL_NED,z,-50.0188102722168
1749826239.4850874,POSITION_TARGET_LOCAL_NED,vx,0.44653207063674927
1749826239.4850874,POSITION_TARGET_LOCAL_NED,vy,5.023828506469727
1749826239.4850874,POSITION_TARGET_LOCAL_NED,vz,0.015501631423830986
1749826239.4850874,POSITION_TARGET_LOCAL_NED,afx,-0.022707229480147362
1749826239.4850874,POSITION_TARGET_LOCAL_NED,afy,0.6622354984283447
1749826239.4850874,POSITION_TARGET_LOCAL_NED,afz,-0.003107378724962473
1749826239.4850874,POSITION_TARGET_LOCAL_NED,yaw,1.4732422828674316
1749826239.4850874,POSITION_TARGET_LOCAL_NED,yaw_rate,0.0
1749826239.48524,SERVO_OUTPUT_RAW,mavpackettype,SERVO_OUTPUT_RAW
1749826239.48524,SERVO_OUTPUT_RAW,time_usec,812184000
1749826239.48524,SERVO_OUTPUT_RAW,port,0
1749826239.48524,SERVO_OUTPUT_RAW,servo1_raw,757
1749826239.48524,SERVO_OUTPUT_RAW,servo2_raw,781
1749826239.48524,SERVO_OUTPUT_RAW,servo3_raw,761
1749826239.48524,SERVO_OUTPUT_RAW,servo4_raw,776
1749826239.48524,SERVO_OUTPUT_RAW,servo5_raw,0
1749826239.48524,SERVO_OUTPUT_RAW,servo6_raw,0
1749826239.48524,SERVO_OUTPUT_RAW,servo7_raw,0
1749826239.48524,SERVO_OUTPUT_RAW,servo8_raw,0
1749826239.48524,SERVO_OUTPUT_RAW,servo9_raw,0
1749826239.48524,SERVO_OUTPUT_RAW,servo10_raw,0
1749826239.48524,SERVO_OUTPUT_RAW,servo11_raw,0
1749826239.48524,SERVO_OUTPUT_RAW,servo12_raw,0
1749826239.48524,SERVO_OUTPUT_RAW,servo13_raw,0
1749826239.48524,SERVO_OUTPUT_RAW,servo14_raw,0
1749826239.48524,SERVO_OUTPUT_RAW,servo15_raw,0
1749826239.48524,SERVO_OUTPUT_RAW,servo16_raw,0
1749826239.4853325,ATTITUDE,mavpackettype,ATTITUDE
1749826239.4853325,ATTITUDE,time_boot_ms,812204
1749826239.4853325,ATTITUDE,roll,0.008790530264377594
1749826239.4853325,ATTITUDE,pitch,-0.06212848797440529
1749826239.4853325,ATTITUDE,yaw,1.473583459854126
1749826239.4853325,ATTITUDE,rollspeed,0.0008487091981805861
1749826239.4853325,ATTITUDE,pitchspeed,-0.023390792310237885
1749826239.4853325,ATTITUDE,yawspeed,-0.0002480394614394754
1749826239.4854338,ATTITUDE_QUATERNION,mavpackettype,ATTITUDE_QUATERNION
1749826239.4854338,ATTITUDE_QUATERNION,time_boot_ms,812204
1749826239.4854338,ATTITUDE_QUATERNION,q1,-0.7401718497276306
1749826239.4854338,ATTITUDE_QUATERNION,q2,-0.024122655391693115
1749826239.4854338,ATTITUDE_QUATERNION,q3,0.020051315426826477
1749826239.4854338,ATTITUDE_QUATERNION,q4,-0.6716856956481934
1749826239.4854338,ATTITUDE_QUATERNION,rollspeed,0.0008487091981805861
1749826239.4854338,ATTITUDE_QUATERNION,pitchspeed,-0.023390792310237885
1749826239.4854338,ATTITUDE_QUATERNION,yawspeed,-0.0002480394614394754
1749826239.4854338,ATTITUDE_QUATERNION,repr_offset_q,"[0.0, 0.0, 0.0, 0.0]"
1749826239.485532,ATTITUDE_TARGET,mavpackettype,ATTITUDE_TARGET
1749826239.485532,ATTITUDE_TARGET,time_boot_ms,812200
1749826239.485532,ATTITUDE_TARGET,type_mask,0
1749826239.485532,ATTITUDE_TARGET,q,"[0.7402287125587463, 0.02556130848824978, -0.021622085943818092, 0.6715210676193237]"
1749826239.485532,ATTITUDE_TARGET,body_roll_rate,3.939121961593628e-05
1749826239.485532,ATTITUDE_TARGET,body_pitch_rate,-0.017054393887519836
1749826239.485532,ATTITUDE_TARGET,body_yaw_rate,-0.0008457303047180176
1749826239.485532,ATTITUDE_TARGET,thrust,0.7274278998374939
1749826239.485609,GLOBAL_POSITION_INT,mavpackettype,GLOBAL_POSITION_INT
1749826239.485609,GLOBAL_POSITION_INT,time_boot_ms,812200
1749826239.485609,GLOBAL_POSITION_INT,lat,474001299
1749826239.485609,GLOBAL_POSITION_INT,lon,85452532
1749826239.485609,GLOBAL_POSITION_INT,alt,50270
1749826239.485609,GLOBAL_POSITION_INT,relative_alt,50015
1749826239.485609,GLOBAL_POSITION_INT,vx,46
1749826239.485609,GLOBAL_POSITION_INT,vy,499
1749826239.485609,GLOBAL_POSITION_INT,vz,1
1749826239.485609,GLOBAL_POSITION_INT,hdg,8443
1749826239.485684,LOCAL_POSITION_NED,mavpackettype,LOCAL_POSITION_NED
1749826239.485684,LOCAL_POSITION_NED,time_boot_ms,812200
1749826239.485684,LOCAL_POSITION_NED,x,240.0507049560547
1749826239.485684,LOCAL_POSITION_NED,y,-68.54214477539062
1749826239.485684,LOCAL_POSITION_NED,z,-50.03420639038086
1749826239.485684,LOCAL_POSITION_NED,vx,0.4634287357330322
1749826239.485684,LOCAL_POSITION_NED,vy,4.997318744659424
1749826239.485684,LOCAL_POSITION_NED,vz,0.017103681340813637
1749826239.485816,POSITION_TARGET_LOCAL_NED,mavpackettype,POSITION_TARGET_LOCAL_NED
1749826239.485816,POSITION_TARGET_LOCAL_NED,time_boot_ms,812200
1749826239.485816,POSITION_TARGET_LOCAL_NED,coordinate_frame,1
1749826239.485816,POSITION_TARGET_LOCAL_NED,type_mask,0
1749826239.485816,POSITION_TARGET_LOCAL_NED,x,240.00582885742188
1749826239.485816,POSITION_TARGET_LOCAL_NED,y,-68.49403381347656
1749826239.485816,POSITION_TARGET_LOCAL_NED,z,-50.0188102722168
1749826239.485816,POSITION_TARGET_LOCAL_NED,vx,0.4462420344352722
1749826239.485816,POSITION_TARGET_LOCAL_NED,vy,5.021748065948486
1749826239.485816,POSITION_TARGET_LOCAL_NED,vz,0.015391001477837563
1749826239.485816,POSITION_TARGET_LOCAL_NED,afx,-0.0227959081530571
1749826239.485816,POSITION_TARGET_LOCAL_NED,afy,0.6573562622070312
1749826239.485816,POSITION_TARGET_LOCAL_NED,afz,-0.0027635712176561356
1749826239.485816,POSITION_TARGET_LOCAL_NED,yaw,1.473243236541748
1749826239.485816,POSITION_TARGET_LOCAL_NED,yaw_rate,0.0
1749826239.4860756,SERVO_OUTPUT_RAW,mavpackettype,SERVO_OUTPUT_RAW
1749826239.4860756,SERVO_OUTPUT_RAW,time_usec,812204000
1749826239.4860756,SERVO_OUTPUT_RAW,port,0
1749826239.4860756,SERVO_OUTPUT_RAW,servo1_raw,760
1749826239.4860756,SERVO_OUTPUT_RAW,servo2_raw,778
1749826239.4860756,SERVO_OUTPUT_RAW,servo3_raw,763
1749826239.4860756,SERVO_OUTPUT_RAW,servo4_raw,773
1749826239.4860756,SERVO_OUTPUT_RAW,servo5_raw,0
1749826239.4860756,SERVO_OUTPUT_RAW,servo6_raw,0
1749826239.4860756,SERVO_OUTPUT_RAW,servo7_raw,0
1749826239.4860756,SERVO_OUTPUT_RAW,servo8_raw,0
1749826239.4860756,SERVO_OUTPUT_RAW,servo9_raw,0
1749826239.4860756,SERVO_OUTPUT_RAW,servo10_raw,0
1749826239.4860756,SERVO_OUTPUT_RAW,servo11_raw,0
1749826239.4860756,SERVO_OUTPUT_RAW,servo12_raw,0
1749826239.4860756,SERVO_OUTPUT_RAW,servo13_raw,0
1749826239.4860756,SERVO_OUTPUT_RAW,servo14_raw,0
1749826239.4860756,SERVO_OUTPUT_RAW,servo15_raw,0
1749826239.4860756,SERVO_OUTPUT_RAW,servo16_raw,0
1749826239.563209,ATTITUDE,mavpackettype,ATTITUDE
1749826239.563209,ATTITUDE,time_boot_ms,812224
1749826239.563209,ATTITUDE,roll,0.008795750327408314
1749826239.563209,ATTITUDE,pitch,-0.06260750442743301
1749826239.563209,ATTITUDE,yaw,1.4735808372497559
1749826239.563209,ATTITUDE,rollspeed,9.84214639174752e-05
1749826239.563209,ATTITUDE,pitchspeed,-0.024808794260025024
1749826239.563209,ATTITUDE,yawspeed,-0.0010069248965010047
1749826239.563427,ATTITUDE_QUATERNION,mavpackettype,ATTITUDE_QUATERNION
1749826239.563427,ATTITUDE_QUATERNION,time_boot_ms,812224
1749826239.563427,ATTITUDE_QUATERNION,q1,-0.7401664853096008
1749826239.563427,ATTITUDE_QUATERNION,q2,-0.02428538165986538
1749826239.563427,ATTITUDE_QUATERNION,q3,0.020226914435625076
1749826239.563427,ATTITUDE_QUATERNION,q4,-0.6716805100440979
1749826239.563427,ATTITUDE_QUATERNION,rollspeed,9.84214639174752e-05
1749826239.563427,ATTITUDE_QUATERNION,pitchspeed,-0.024808794260025024
1749826239.563427,ATTITUDE_QUATERNION,yawspeed,-0.0010069248965010047
1749826239.563427,ATTITUDE_QUATERNION,repr_offset_q,"[0.0, 0.0, 0.0, 0.0]"
1749826239.56355,ATTITUDE_TARGET,mavpackettype,ATTITUDE_TARGET
1749826239.56355,ATTITUDE_TARGET,time_boot_ms,812224
1749826239.56355,ATTITUDE_TARGET,type_mask,0
1749826239.56355,ATTITUDE_TARGET,q,"[0.7402297258377075, 0.025525467470288277, -0.021583084017038345, 0.6715226173400879]"
1749826239.56355,ATTITUDE_TARGET,body_roll_rate,-0.0001580566167831421
1749826239.56355,ATTITUDE_TARGET,body_pitch_rate,-0.042503803968429565
1749826239.56355,ATTITUDE_TARGET,body_yaw_rate,-0.0006771683692932129
1749826239.56355,ATTITUDE_TARGET,thrust,0.7274035215377808
1749826239.563631,GLOBAL_POSITION_INT,mavpackettype,GLOBAL_POSITION_INT
1749826239.563631,GLOBAL_POSITION_INT,time_boot_ms,812224
1749826239.563631,GLOBAL_POSITION_INT,lat,474001300
1749826239.563631,GLOBAL_POSITION_INT,lon,85452548
1749826239.563631,GLOBAL_POSITION_INT,alt,50270
1749826239.563631,GLOBAL_POSITION_INT,relative_alt,50015
1749826239.563631,GLOBAL_POSITION_INT,vx,46
1749826239.563631,GLOBAL_POSITION_INT,vy,499
1749826239.563631,GLOBAL_POSITION_INT,vz,1
1749826239.563631,GLOBAL_POSITION_INT,hdg,8442
1749826239.56369,LOCAL_POSITION_NED,mavpackettype,LOCAL_POSITION_NED
1749826239.56369,LOCAL_POSITION_NED,time_boot_ms,812224
1749826239.56369,LOCAL_POSITION_NED,x,240.06259155273438
1749826239.56369,LOCAL_POSITION_NED,y,-68.42234802246094
1749826239.56369,LOCAL_POSITION_NED,z,-50.03402328491211
1749826239.56369,LOCAL_POSITION_NED,vx,0.4630437195301056
1749826239.56369,LOCAL_POSITION_NED,vy,4.997336387634277
1749826239.56369,LOCAL_POSITION_NED,vz,0.016835389658808708
1749826239.5637505,POSITION_TARGET_LOCAL_NED,mavpackettype,POSITION_TARGET_LOCAL_NED
1749826239.5637505,POSITION_TARGET_LOCAL_NED,time_boot_ms,812224
1749826239.5637505,POSITION_TARGET_LOCAL_NED,coordinate_frame,1
1749826239.5637505,POSITION_TARGET_LOCAL_NED,type_mask,0
1749826239.5637505,POSITION_TARGET_LOCAL_NED,x,240.01756286621094
1749826239.5637505,POSITION_TARGET_LOCAL_NED,y,-68.3746109008789
1749826239.5637505,POSITION_TARGET_LOCAL_NED,z,-50.0188102722168
1749826239.5637505,POSITION_TARGET_LOCAL_NED,vx,0.4460970163345337
1749826239.5637505,POSITION_TARGET_LOCAL_NED,vy,5.021392822265625
1749826239.5637505,POSITION_TARGET_LOCAL_NED,vz,0.01520789135247469
1749826239.5637505,POSITION_TARGET_LOCAL_NED,afx,-0.02289075031876564
1749826239.5637505,POSITION_TARGET_LOCAL_NED,afy,0.6563230752944946
1749826239.5637505,POSITION_TARGET_LOCAL_NED,afz,-0.0025091604329645634
1749826239.5637505,POSITION_TARGET_LOCAL_NED,yaw,1.4732446670532227
1749826239.5637505,POSITION_TARGET_LOCAL_NED,yaw_rate,0.0
1749826239.5638585,SERVO_OUTPUT_RAW,mavpackettype,SERVO_OUTPUT_RAW
1749826239.5638585,SERVO_OUTPUT_RAW,time_usec,812224000
1749826239.5638585,SERVO_OUTPUT_RAW,port,0
1749826239.5638585,SERVO_OUTPUT_RAW,servo1_raw,757
1749826239.5638585,SERVO_OUTPUT_RAW,servo2_raw,781
1749826239.5638585,SERVO_OUTPUT_RAW,servo3_raw,761
1749826239.5638585,SERVO_OUTPUT_RAW,servo4_raw,776
1749826239.5638585,SERVO_OUTPUT_RAW,servo5_raw,0
1749826239.5638585,SERVO_OUTPUT_RAW,servo6_raw,0
1749826239.5638585,SERVO_OUTPUT_RAW,servo7_raw,0
1749826239.5638585,SERVO_OUTPUT_RAW,servo8_raw,0
1749826239.5638585,SERVO_OUTPUT_RAW,servo9_raw,0
1749826239.5638585,SERVO_OUTPUT_RAW,servo10_raw,0
1749826239.5638585,SERVO_OUTPUT_RAW,servo11_raw,0
1749826239.5638585,SERVO_OUTPUT_RAW,servo12_raw,0
1749826239.5638585,SERVO_OUTPUT_RAW,servo13_raw,0
1749826239.5638585,SERVO_OUTPUT_RAW,servo14_raw,0
1749826239.5638585,SERVO_OUTPUT_RAW,servo15_raw,0
1749826239.5638585,SERVO_OUTPUT_RAW,servo16_raw,0
1749826239.56393,ATTITUDE,mavpackettype,ATTITUDE
1749826239.56393,ATTITUDE,time_boot_ms,812244
1749826239.56393,ATTITUDE,roll,0.008786631748080254
1749826239.56393,ATTITUDE,pitch,-0.06307467818260193
1749826239.56393,ATTITUDE,yaw,1.4735735654830933
1749826239.56393,ATTITUDE,rollspeed,0.0004041008069179952
1749826239.56393,ATTITUDE,pitchspeed,-0.020602041855454445
1749826239.56393,ATTITUDE,yawspeed,-0.0012742535909637809
1749826239.5639944,ATTITUDE_QUATERNION,mavpackettype,ATTITUDE_QUATERNION
1749826239.5639944,ATTITUDE_QUATERNION,time_boot_ms,812244
1749826239.5639944,ATTITUDE_QUATERNION,q1,-0.7401629090309143
1749826239.5639944,ATTITUDE_QUATERNION,q2,-0.024438785389065742
1749826239.5639944,ATTITUDE_QUATERNION,q3,0.020403003320097923
1749826239.5639944,ATTITUDE_QUATERNION,q4,-0.671673595905304
1749826239.5639944,ATTITUDE_QUATERNION,rollspeed,0.0004041008069179952
1749826239.5639944,ATTITUDE_QUATERNION,pitchspeed,-0.020602041855454445
1749826239.5639944,ATTITUDE_QUATERNION,yawspeed,-0.0012742535909637809
1749826239.5639944,ATTITUDE_QUATERNION,repr_offset_q,"[0.0, 0.0, 0.0, 0.0]"
1749826239.5640645,ATTITUDE_TARGET,mavpackettype,ATTITUDE_TARGET
1749826239.5640645,ATTITUDE_TARGET,time_boot_ms,812240
1749826239.5640645,ATTITUDE_TARGET,type_mask,0
1749826239.5640645,ATTITUDE_TARGET,q,"[0.7402376532554626, 0.025321241468191147, -0.021390579640865326, 0.6715276837348938]"
1749826239.5640645,ATTITUDE_TARGET,body_roll_rate,-0.00012072175741195679
1749826239.5640645,ATTITUDE_TARGET,body_pitch_rate,-0.0106058269739151
1749826239.5640645,ATTITUDE_TARGET,body_yaw_rate,-0.0008515715599060059
1749826239.5640645,ATTITUDE_TARGET,thrust,0.7273818850517273
1749826239.5641255,GLOBAL_POSITION_INT,mavpackettype,GLOBAL_POSITION_INT
1749826239.5641255,GLOBAL_POSITION_INT,time_boot_ms,812240
1749826239.5641255,GLOBAL_POSITION_INT,lat,474001301
1749826239.5641255,GLOBAL_POSITION_INT,lon,85452559
1749826239.5641255,GLOBAL_POSITION_INT,alt,50270
1749826239.5641255,GLOBAL_POSITION_INT,relative_alt,50014
1749826239.5641255,GLOBAL_POSITION_INT,vx,46
1749826239.5641255,GLOBAL_POSITION_INT,vy,499
1749826239.5641255,GLOBAL_POSITION_INT,vz,1
1749826239.5641255,GLOBAL_POSITION_INT,hdg,8442
1749826239.564261,LOCAL_POSITION_NED,mavpackettype,LOCAL_POSITION_NED
1749826239.564261,LOCAL_POSITION_NED,time_boot_ms,812240
1749826239.564261,LOCAL_POSITION_NED,x,240.07049560546875
1749826239.564261,LOCAL_POSITION_NED,y,-68.34248352050781
1749826239.564261,LOCAL_POSITION_NED,z,-50.03390121459961
1749826239.564261,LOCAL_POSITION_NED,vx,0.462776780128479
1749826239.564261,LOCAL_POSITION_NED,vy,4.997599124908447
1749826239.564261,LOCAL_POSITION_NED,vz,0.016718870028853416
1749826239.5643237,POSITION_TARGET_LOCAL_NED,mavpackettype,POSITION_TARGET_LOCAL_NED
1749826239.5643237,POSITION_TARGET_LOCAL_NED,time_boot_ms,812240
1749826239.5643237,POSITION_TARGET_LOCAL_NED,coordinate_frame,1
1749826239.5643237,POSITION_TARGET_LOCAL_NED,type_mask,0
1749826239.5643237,POSITION_TARGET_LOCAL_NED,x,240.0251922607422
1749826239.5643237,POSITION_TARGET_LOCAL_NED,y,-68.29696655273438
1749826239.5643237,POSITION_TARGET_LOCAL_NED,z,-50.0188102722168
1749826239.5643237,POSITION_TARGET_LOCAL_NED,vx,0.44583600759506226
1749826239.5643237,POSITION_TARGET_LOCAL_NED,vy,5.019283771514893
1749826239.5643237,POSITION_TARGET_LOCAL_NED,vz,0.015085818246006966
1749826239.5643237,POSITION_TARGET_LOCAL_NED,afx,-0.022994326427578926
1749826239.5643237,POSITION_TARGET_LOCAL_NED,afy,0.65079265832901
1749826239.5643237,POSITION_TARGET_LOCAL_NED,afz,-0.0025835256092250347
1749826239.5643237,POSITION_TARGET_LOCAL_NED,yaw,1.47324538230896
1749826239.5643237,POSITION_TARGET_LOCAL_NED,yaw_rate,0.0
1749826239.564413,SERVO_OUTPUT_RAW,mavpackettype,SERVO_OUTPUT_RAW
1749826239.564413,SERVO_OUTPUT_RAW,time_usec,812244000
1749826239.564413,SERVO_OUTPUT_RAW,port,0
1749826239.564413,SERVO_OUTPUT_RAW,servo1_raw,757
1749826239.564413,SERVO_OUTPUT_RAW,servo2_raw,781
1749826239.564413,SERVO_OUTPUT_RAW,servo3_raw,760
1749826239.564413,SERVO_OUTPUT_RAW,servo4_raw,776
1749826239.564413,SERVO_OUTPUT_RAW,servo5_raw,0
1749826239.564413,SERVO_OUTPUT_RAW,servo6_raw,0
1749826239.564413,SERVO_OUTPUT_RAW,servo7_raw,0
1749826239.564413,SERVO_OUTPUT_RAW,servo8_raw,0
1749826239.564413,SERVO_OUTPUT_RAW,servo9_raw,0
1749826239.564413,SERVO_OUTPUT_RAW,servo10_raw,0
1749826239.564413,SERVO_OUTPUT_RAW,servo11_raw,0
1749826239.564413,SERVO_OUTPUT_RAW,servo12_raw,0
1749826239.564413,SERVO_OUTPUT_RAW,servo13_raw,0
1749826239.564413,SERVO_OUTPUT_RAW,servo14_raw,0
1749826239.564413,SERVO_OUTPUT_RAW,servo15_raw,0
1749826239.564413,SERVO_OUTPUT_RAW,servo16_raw,0
1749826239.5644813,ATTITUDE,mavpackettype,ATTITUDE
1749826239.5644813,ATTITUDE,time_boot_ms,812264
1749826239.5644813,ATTITUDE,roll,0.008781004697084427
1749826239.5644813,ATTITUDE,pitch,-0.063513845205307
1749826239.5644813,ATTITUDE,yaw,1.4735645055770874
1749826239.5644813,ATTITUDE,rollspeed,-0.0001219842815771699
1749826239.5644813,ATTITUDE,pitchspeed,-0.025418318808078766
1749826239.5644813,ATTITUDE,yawspeed,-0.0004135111521463841
1749826239.564542,ATTITUDE_QUATERNION,mavpackettype,ATTITUDE_QUATERNION
1749826239.564542,ATTITUDE_QUATERNION,time_boot_ms,812264
1749826239.564542,ATTITUDE_QUATERNION,q1,-0.7401602864265442
1749826239.564542,ATTITUDE_QUATERNION,q2,-0.024584047496318817
1749826239.564542,ATTITUDE_QUATERNION,q3,0.020567571744322777
1749826239.564542,ATTITUDE_QUATERNION,q4,-0.6716662049293518
1749826239.564542,ATTITUDE_QUATERNION,rollspeed,-0.0001219842815771699
1749826239.564542,ATTITUDE_QUATERNION,pitchspeed,-0.025418318808078766
1749826239.564542,ATTITUDE_QUATERNION,yawspeed,-0.0004135111521463841
1749826239.564542,ATTITUDE_QUATERNION,repr_offset_q,"[0.0, 0.0, 0.0, 0.0]"
1749826239.564607,ATTITUDE_TARGET,mavpackettype,ATTITUDE_TARGET
1749826239.564607,ATTITUDE_TARGET,time_boot_ms,812264
1749826239.564607,ATTITUDE_TARGET,type_mask,0
1749826239.564607,ATTITUDE_TARGET,q,"[0.7402397990226746, 0.02526402845978737, -0.021302001550793648, 0.6715303063392639]"
1749826239.564607,ATTITUDE_TARGET,body_roll_rate,-4.856288433074951e-05
1749826239.564607,ATTITUDE_TARGET,body_pitch_rate,-0.036010563373565674
1749826239.564607,ATTITUDE_TARGET,body_yaw_rate,-0.0006663203239440918
1749826239.564607,ATTITUDE_TARGET,thrust,0.72735595703125
1749826239.5646665,GLOBAL_POSITION_INT,mavpackettype,GLOBAL_POSITION_INT
1749826239.5646665,GLOBAL_POSITION_INT,time_boot_ms,812264
1749826239.5646665,GLOBAL_POSITION_INT,lat,474001302
1749826239.5646665,GLOBAL_POSITION_INT,lon,85452575
1749826239.5646665,GLOBAL_POSITION_INT,alt,50270
1749826239.5646665,GLOBAL_POSITION_INT,relative_alt,50014
1749826239.5646665,GLOBAL_POSITION_INT,vx,46
1749826239.5646665,GLOBAL_POSITION_INT,vy,499
1749826239.5646665,GLOBAL_POSITION_INT,vz,1
1749826239.5646665,GLOBAL_POSITION_INT,hdg,8442
1749826239.564716,LOCAL_POSITION_NED,mavpackettype,LOCAL_POSITION_NED
1749826239.564716,LOCAL_POSITION_NED,time_boot_ms,812264
1749826239.564716,LOCAL_POSITION_NED,x,240.08233642578125
1749826239.564716,LOCAL_POSITION_NED,y,-68.2226333618164
1749826239.564716,LOCAL_POSITION_NED,z,-50.03375244140625
1749826239.564716,LOCAL_POSITION_NED,vx,0.46251335740089417
1749826239.564716,LOCAL_POSITION_NED,vy,4.997926235198975
1749826239.564716,LOCAL_POSITION_NED,vz,0.01649617776274681
1749826239.5647707,POSITION_TARGET_LOCAL_NED,mavpackettype,POSITION_TARGET_LOCAL_NED
1749826239.5647707,POSITION_TARGET_LOCAL_NED,time_boot_ms,812264
1749826239.5647707,POSITION_TARGET_LOCAL_NED,coordinate_frame,1
1749826239.5647707,POSITION_TARGET_LOCAL_NED,type_mask,0
1749826239.5647707,POSITION_TARGET_LOCAL_NED,x,240.03692626953125
1749826239.5647707,POSITION_TARGET_LOCAL_NED,y,-68.17754364013672
1749826239.5647707,POSITION_TARGET_LOCAL_NED,z,-50.0188102722168
1749826239.5647707,POSITION_TARGET_LOCAL_NED,vx,0.44573453068733215
1749826239.5647707,POSITION_TARGET_LOCAL_NED,vy,5.018877983093262
1749826239.5647707,POSITION_TARGET_LOCAL_NED,vz,0.014937040396034718
1749826239.5647707,POSITION_TARGET_LOCAL_NED,afx,-0.02352777309715748
1749826239.5647707,POSITION_TARGET_LOCAL_NED,afy,0.6487747430801392
1749826239.5647707,POSITION_TARGET_LOCAL_NED,afz,-0.002366434084251523
1749826239.5647707,POSITION_TARGET_LOCAL_NED,yaw,1.4732463359832764
1749826239.5647707,POSITION_TARGET_LOCAL_NED,yaw_rate,0.0
1749826239.564851,SERVO_OUTPUT_RAW,mavpackettype,SERVO_OUTPUT_RAW
1749826239.564851,SERVO_OUTPUT_RAW,time_usec,812264000
1749826239.564851,SERVO_OUTPUT_RAW,port,0
1749826239.564851,SERVO_OUTPUT_RAW,servo1_raw,758
1749826239.564851,SERVO_OUTPUT_RAW,servo2_raw,780
1749826239.564851,SERVO_OUTPUT_RAW,servo3_raw,762
1749826239.564851,SERVO_OUTPUT_RAW,servo4_raw,775
1749826239.564851,SERVO_OUTPUT_RAW,servo5_raw,0
1749826239.564851,SERVO_OUTPUT_RAW,servo6_raw,0
1749826239.564851,SERVO_OUTPUT_RAW,servo7_raw,0
1749826239.564851,SERVO_OUTPUT_RAW,servo8_raw,0
1749826239.564851,SERVO_OUTPUT_RAW,servo9_raw,0
1749826239.564851,SERVO_OUTPUT_RAW,servo10_raw,0
1749826239.564851,SERVO_OUTPUT_RAW,servo11_raw,0
1749826239.564851,SERVO_OUTPUT_RAW,servo12_raw,0
1749826239.564851,SERVO_OUTPUT_RAW,servo13_raw,0
1749826239.564851,SERVO_OUTPUT_RAW,servo14_raw,0
1749826239.564851,SERVO_OUTPUT_RAW,servo15_raw,0
1749826239.564851,SERVO_OUTPUT_RAW,servo16_raw,0
1749826239.5649176,ATTITUDE,mavpackettype,ATTITUDE
1749826239.5649176,ATTITUDE,time_boot_ms,812284
1749826239.5649176,ATTITUDE,roll,0.008776507340371609
1749826239.5649176,ATTITUDE,pitch,-0.06400088965892792
1749826239.5649176,ATTITUDE,yaw,1.4735686779022217
1749826239.5649176,ATTITUDE,rollspeed,0.0009632377768866718
1749826239.5649176,ATTITUDE,pitchspeed,-0.020102519541978836
1749826239.5649176,ATTITUDE,yawspeed,-0.00105849071405828
1749826239.564975,ATTITUDE_QUATERNION,mavpackettype,ATTITUDE_QUATERNION
1749826239.564975,ATTITUDE_QUATERNION,time_boot_ms,812284
1749826239.564975,ATTITUDE_QUATERNION,q1,-0.7401523590087891
1749826239.564975,ATTITUDE_QUATERNION,q2,-0.024745946750044823
1749826239.564975,ATTITUDE_QUATERNION,q3,0.020749323070049286
1749826239.564975,ATTITUDE_QUATERNION,q4,-0.6716632843017578
1749826239.564975,ATTITUDE_QUATERNION,rollspeed,0.0009632377768866718
1749826239.564975,ATTITUDE_QUATERNION,pitchspeed,-0.020102519541978836
1749826239.564975,ATTITUDE_QUATERNION,yawspeed,-0.00105849071405828
1749826239.564975,ATTITUDE_QUATERNION,repr_offset_q,"[0.0, 0.0, 0.0, 0.0]"
1749826239.565054,ATTITUDE_TARGET,mavpackettype,ATTITUDE_TARGET
1749826239.565054,ATTITUDE_TARGET,time_boot_ms,812280
1749826239.565054,ATTITUDE_TARGET,type_mask,0
1749826239.565054,ATTITUDE_TARGET,q,"[0.7402470707893372, 0.025076918303966522, -0.021133489906787872, 0.6715347170829773]"
1749826239.565054,ATTITUDE_TARGET,body_roll_rate,-0.00014496594667434692
1749826239.565054,ATTITUDE_TARGET,body_pitch_rate,-0.004062861204147339
1749826239.565054,ATTITUDE_TARGET,body_yaw_rate,-0.0008745193481445312
1749826239.565054,ATTITUDE_TARGET,thrust,0.7272967100143433
1749826239.565109,GLOBAL_POSITION_INT,mavpackettype,GLOBAL_POSITION_INT
1749826239.565109,GLOBAL_POSITION_INT,time_boot_ms,812280
1749826239.565109,GLOBAL_POSITION_INT,lat,474001303
1749826239.565109,GLOBAL_POSITION_INT,lon,85452585
1749826239.565109,GLOBAL_POSITION_INT,alt,50270
1749826239.565109,GLOBAL_POSITION_INT,relative_alt,50014
1749826239.565109,GLOBAL_POSITION_INT,vx,46
1749826239.565109,GLOBAL_POSITION_INT,vy,499
1749826239.565109,GLOBAL_POSITION_INT,vz,1
1749826239.565109,GLOBAL_POSITION_INT,hdg,8442
1749826239.5651557,LOCAL_POSITION_NED,mavpackettype,LOCAL_POSITION_NED
1749826239.5651557,LOCAL_POSITION_NED,time_boot_ms,812280
1749826239.5651557,LOCAL_POSITION_NED,x,240.09019470214844
1749826239.5651557,LOCAL_POSITION_NED,y,-68.14274597167969
1749826239.5651557,LOCAL_POSITION_NED,z,-50.03367614746094
1749826239.5651557,LOCAL_POSITION_NED,vx,0.4622770845890045
1749826239.5651557,LOCAL_POSITION_NED,vy,4.998241424560547
1749826239.5651557,LOCAL_POSITION_NED,vz,0.016289222985506058
1749826239.5652084,POSITION_TARGET_LOCAL_NED,mavpackettype,POSITION_TARGET_LOCAL_NED
1749826239.5652084,POSITION_TARGET_LOCAL_NED,time_boot_ms,812280
1749826239.5652084,POSITION_TARGET_LOCAL_NED,coordinate_frame,1
1749826239.5652084,POSITION_TARGET_LOCAL_NED,type_mask,0
1749826239.5652084,POSITION_TARGET_LOCAL_NED,x,240.0445556640625
1749826239.5652084,POSITION_TARGET_LOCAL_NED,y,-68.09989929199219
1749826239.5652084,POSITION_TARGET_LOCAL_NED,z,-50.0188102722168
1749826239.5652084,POSITION_TARGET_LOCAL_NED,vx,0.44551703333854675
1749826239.5652084,POSITION_TARGET_LOCAL_NED,vy,5.016746997833252
1749826239.5652084,POSITION_TARGET_LOCAL_NED,vz,0.014860742725431919
1749826239.5652084,POSITION_TARGET_LOCAL_NED,afx,-0.023508455604314804
1749826239.5652084,POSITION_TARGET_LOCAL_NED,afy,0.6438201069831848
1749826239.5652084,POSITION_TARGET_LOCAL_NED,afz,-0.0018968654330819845
1749826239.5652084,POSITION_TARGET_LOCAL_NED,yaw,1.4732468128204346
1749826239.5652084,POSITION_TARGET_LOCAL_NED,yaw_rate,0.0
1749826239.5652876,SERVO_OUTPUT_RAW,mavpackettype,SERVO_OUTPUT_RAW
1749826239.5652876,SERVO_OUTPUT_RAW,time_usec,812284000
1749826239.5652876,SERVO_OUTPUT_RAW,port,0
1749826239.5652876,SERVO_OUTPUT_RAW,servo1_raw,758
1749826239.5652876,SERVO_OUTPUT_RAW,servo2_raw,780
1749826239.5652876,SERVO_OUTPUT_RAW,servo3_raw,761
1749826239.5652876,SERVO_OUTPUT_RAW,servo4_raw,775
1749826239.5652876,SERVO_OUTPUT_RAW,servo5_raw,0
1749826239.5652876,SERVO_OUTPUT_RAW,servo6_raw,0
1749826239.5652876,SERVO_OUTPUT_RAW,servo7_raw,0
1749826239.5652876,SERVO_OUTPUT_RAW,servo8_raw,0
1749826239.5652876,SERVO_OUTPUT_RAW,servo9_raw,0
1749826239.5652876,SERVO_OUTPUT_RAW,servo10_raw,0
1749826239.5652876,SERVO_OUTPUT_RAW,servo11_raw,0
1749826239.5652876,SERVO_OUTPUT_RAW,servo12_raw,0
1749826239.5652876,SERVO_OUTPUT_RAW,servo13_raw,0
1749826239.5652876,SERVO_OUTPUT_RAW,servo14_raw,0
1749826239.5652876,SERVO_OUTPUT_RAW,servo15_raw,0
1749826239.5652876,SERVO_OUTPUT_RAW,servo16_raw,0
1749826239.5653563,ATTITUDE,mavpackettype,ATTITUDE
1749826239.5653563,ATTITUDE,time_boot_ms,812304
1749826239.5653563,ATTITUDE,roll,0.00877723004668951
1749826239.5653563,ATTITUDE,pitch,-0.06440316885709763
1749826239.5653563,ATTITUDE,yaw,1.4735692739486694
1749826239.5653563,ATTITUDE,rollspeed,0.00045396311907097697
1749826239.5653563,ATTITUDE,pitchspeed,-0.017564071342349052
1749826239.5653563,ATTITUDE,yawspeed,-0.0007484597153961658
1749826239.565414,ATTITUDE_QUATERNION,mavpackettype,ATTITUDE_QUATERNION
1749826239.565414,ATTITUDE_QUATERNION,time_boot_ms,812304
1749826239.565414,ATTITUDE_QUATERNION,q1,-0.7401468753814697
1749826239.565414,ATTITUDE_QUATERNION,q2,-0.0248812735080719
1749826239.565414,ATTITUDE_QUATERNION,q3,0.020897984504699707
1749826239.565414,ATTITUDE_QUATERNION,q4,-0.6716598272323608
1749826239.565414,ATTITUDE_QUATERNION,rollspeed,0.00045396311907097697
1749826239.565414,ATTITUDE_QUATERNION,pitchspeed,-0.017564071342349052
1749826239.565414,ATTITUDE_QUATERNION,yawspeed,-0.0007484597153961658
1749826239.565414,ATTITUDE_QUATERNION,repr_offset_q,"[0.0, 0.0, 0.0, 0.0]"
1749826239.5654776,ATTITUDE_TARGET,mavpackettype,ATTITUDE_TARGET
1749826239.5654776,ATTITUDE_TARGET,time_boot_ms,812304
1749826239.5654776,ATTITUDE_TARGET,type_mask,0
1749826239.5654776,ATTITUDE_TARGET,q,"[0.7402524948120117, 0.024937720969319344, -0.021020086482167244, 0.671537458896637]"
1749826239.5654776,ATTITUDE_TARGET,body_roll_rate,-0.0002496391534805298
1749826239.5654776,ATTITUDE_TARGET,body_pitch_rate,-0.029216840863227844
1749826239.5654776,ATTITUDE_TARGET,body_yaw_rate,-0.000720977783203125
1749826239.5654776,ATTITUDE_TARGET,thrust,0.7272286415100098
1749826239.5655308,GLOBAL_POSITION_INT,mavpackettype,GLOBAL_POSITION_INT
1749826239.5655308,GLOBAL_POSITION_INT,time_boot_ms,812304
1749826239.5655308,GLOBAL_POSITION_INT,lat,474001304
1749826239.5655308,GLOBAL_POSITION_INT,lon,85452601
1749826239.5655308,GLOBAL_POSITION_INT,alt,50269
1749826239.5655308,GLOBAL_POSITION_INT,relative_alt,50014
1749826239.5655308,GLOBAL_POSITION_INT,vx,46
1749826239.5655308,GLOBAL_POSITION_INT,vy,499
1749826239.5655308,GLOBAL_POSITION_INT,vz,1
1749826239.5655308,GLOBAL_POSITION_INT,hdg,8442
1749826239.565588,GPS_RAW_INT,mavpackettype,GPS_RAW_INT
1749826239.565588,GPS_RAW_INT,time_usec,812296000
1749826239.565588,GPS_RAW_INT,fix_type,3
1749826239.565588,GPS_RAW_INT,lat,474001297
1749826239.565588,GPS_RAW_INT,lon,85452536
1749826239.565588,GPS_RAW_INT,alt,50340
1749826239.565588,GPS_RAW_INT,eph,70
1749826239.565588,GPS_RAW_INT,epv,110
1749826239.565588,GPS_RAW_INT,vel,503
1749826239.565588,GPS_RAW_INT,cog,8433
1749826239.565588,GPS_RAW_INT,satellites_visible,10
1749826239.565588,GPS_RAW_INT,alt_ellipsoid,50340
1749826239.565588,GPS_RAW_INT,h_acc,900
1749826239.565588,GPS_RAW_INT,v_acc,1780
1749826239.565588,GPS_RAW_INT,vel_acc,400
1749826239.565588,GPS_RAW_INT,hdg_acc,0
1749826239.565588,GPS_RAW_INT,yaw,0
1749826239.5656486,LOCAL_POSITION_NED,mavpackettype,LOCAL_POSITION_NED
1749826239.5656486,LOCAL_POSITION_NED,time_boot_ms,812304
1749826239.5656486,LOCAL_POSITION_NED,x,240.10191345214844
1749826239.5656486,LOCAL_POSITION_NED,y,-68.02287292480469
1749826239.5656486,LOCAL_POSITION_NED,z,-50.03355026245117
1749826239.5656486,LOCAL_POSITION_NED,vx,0.46199506521224976
1749826239.5656486,LOCAL_POSITION_NED,vy,4.9989447593688965
1749826239.5656486,LOCAL_POSITION_NED,vz,0.015975890681147575
1749826239.565702,POSITION_TARGET_LOCAL_NED,mavpackettype,POSITION_TARGET_LOCAL_NED
1749826239.565702,POSITION_TARGET_LOCAL_NED,time_boot_ms,812304
1749826239.565702,POSITION_TARGET_LOCAL_NED,coordinate_frame,1
1749826239.565702,POSITION_TARGET_LOCAL_NED,type_mask,0
1749826239.565702,POSITION_TARGET_LOCAL_NED,x,240.05628967285156
1749826239.565702,POSITION_TARGET_LOCAL_NED,y,-67.98047637939453
1749826239.565702,POSITION_TARGET_LOCAL_NED,z,-50.0188102722168
1749826239.565702,POSITION_TARGET_LOCAL_NED,vx,0.4455314576625824
1749826239.565702,POSITION_TARGET_LOCAL_NED,vy,5.016319274902344
1749826239.565702,POSITION_TARGET_LOCAL_NED,vz,0.014734853059053421
1749826239.565702,POSITION_TARGET_LOCAL_NED,afx,-0.02331954427063465
1749826239.565702,POSITION_TARGET_LOCAL_NED,afy,0.6402811408042908
1749826239.565702,POSITION_TARGET_LOCAL_NED,afz,-0.0012165899388492107
1749826239.565702,POSITION_TARGET_LOCAL_NED,yaw,1.4732469320297241
1749826239.565702,POSITION_TARGET_LOCAL_NED,yaw_rate,0.0
1749826239.5657904,SERVO_OUTPUT_RAW,mavpackettype,SERVO_OUTPUT_RAW
1749826239.5657904,SERVO_OUTPUT_RAW,time_usec,812304000
1749826239.5657904,SERVO_OUTPUT_RAW,port,0
1749826239.5657904,SERVO_OUTPUT_RAW,servo1_raw,758
1749826239.5657904,SERVO_OUTPUT_RAW,servo2_raw,780
1749826239.5657904,SERVO_OUTPUT_RAW,servo3_raw,761
1749826239.5657904,SERVO_OUTPUT_RAW,servo4_raw,775
1749826239.5657904,SERVO_OUTPUT_RAW,servo5_raw,0
1749826239.5657904,SERVO_OUTPUT_RAW,servo6_raw,0
1749826239.5657904,SERVO_OUTPUT_RAW,servo7_raw,0
1749826239.5657904,SERVO_OUTPUT_RAW,servo8_raw,0
1749826239.5657904,SERVO_OUTPUT_RAW,servo9_raw,0
1749826239.5657904,SERVO_OUTPUT_RAW,servo10_raw,0
1749826239.5657904,SERVO_OUTPUT_RAW,servo11_raw,0
1749826239.5657904,SERVO_OUTPUT_RAW,servo12_raw,0
1749826239.5657904,SERVO_OUTPUT_RAW,servo13_raw,0
1749826239.5657904,SERVO_OUTPUT_RAW,servo14_raw,0
1749826239.5657904,SERVO_OUTPUT_RAW,servo15_raw,0
1749826239.5657904,SERVO_OUTPUT_RAW,servo16_raw,0
1749826239.5658565,ATTITUDE,mavpackettype,ATTITUDE
1749826239.5658565,ATTITUDE,time_boot_ms,812324
1749826239.5658565,ATTITUDE,roll,0.008764035999774933
1749826239.5658565,ATTITUDE,pitch,-0.06472721695899963
1749826239.5658565,ATTITUDE,yaw,1.4735673666000366
1749826239.5658565,ATTITUDE,rollspeed,-0.0004088659188710153
1749826239.5658565,ATTITUDE,pitchspeed,-0.010584807954728603
1749826239.5658565,ATTITUDE,yawspeed,-0.0011106383753940463
1749826239.565914,ATTITUDE_QUATERNION,mavpackettype,ATTITUDE_QUATERNION
1749826239.565914,ATTITUDE_QUATERNION,time_boot_ms,812324
1749826239.565914,ATTITUDE_QUATERNION,q1,-0.7401432394981384
1749826239.565914,ATTITUDE_QUATERNION,q2,-0.024985162541270256
1749826239.565914,ATTITUDE_QUATERNION,q3,0.021022388711571693
1749826239.565914,ATTITUDE_QUATERNION,q4,-0.6716560125350952
1749826239.565914,ATTITUDE_QUATERNION,rollspeed,-0.0004088659188710153
1749826239.565914,ATTITUDE_QUATERNION,pitchspeed,-0.010584807954728603
1749826239.565914,ATTITUDE_QUATERNION,yawspeed,-0.0011106383753940463
1749826239.565914,ATTITUDE_QUATERNION,repr_offset_q,"[0.0, 0.0, 0.0, 0.0]"
1749826239.5659757,ATTITUDE_TARGET,mavpackettype,ATTITUDE_TARGET
1749826239.5659757,ATTITUDE_TARGET,time_boot_ms,812320
1749826239.5659757,ATTITUDE_TARGET,type_mask,0
1749826239.5659757,ATTITUDE_TARGET,q,"[0.7402557134628296, 0.024851897731423378, -0.021006889641284943, 0.6715375185012817]"
